,City,ID,Cloudiness,Country,Date,Humidity,Lat,Lng,Max Temp,Wind Speed
0,Tasiilaq,3424607,33,GL,1571595306,67,65.61,-37.64,32.0,4.7
1,Sechura,3691954,53,PE,1571595307,93,-5.56,-80.82,61.87,17.02
2,Rikitea,4030556,86,PF,1571595308,71,-23.12,-134.97,69.21,15.95
3,Atuona,4020109,0,PF,1571595310,68,-9.8,-139.03,79.33,16.82
4,Kurchum,1521762,100,KZ,1571595310,96,48.57,83.65,35.52,16.51
5,Nanortalik,3421765,46,GL,1571595311,88,60.14,-45.24,43.2,4.29
6,Saint-Philippe,935215,0,RE,1571595312,64,-21.36,55.77,71.6,3.36
7,Castro,3896218,90,CL,1571595314,87,-42.48,-73.76,48.2,23.04
8,Vaini,4032243,40,TO,1571595315,94,-21.2,-175.2,73.4,5.82
9,Albany,2077963,90,AU,1571595320,93,-35.02,117.88,55.4,6.93
10,Ushuaia,3833367,75,AR,1571594884,32,-54.81,-68.31,55.4,28.86
11,Hilo,5855927,90,US,1571595322,74,19.71,-155.08,78.8,3.36
12,Kenai,5866063,20,US,1571595323,93,60.55,-151.26,39.99,9.17
13,Antsohihy,1068971,3,MG,1571595324,69,-14.88,47.99,79.83,5.1
14,Katsuura,1865309,75,JP,1571595326,77,33.93,134.5,64.4,5.82
15,Aklavik,5882953,90,CA,1571595327,92,68.22,-135.01,19.4,4.7
16,Lakes Entrance,2160735,24,AU,1571595328,92,-37.88,147.99,43.0,9.06
17,Caravelas,3466980,93,BR,1571595329,74,-17.73,-39.27,78.59,13.87
18,Qaanaaq,3831208,0,GL,1571595330,54,77.48,-69.36,2.05,9.08
19,Cape Town,3369157,75,ZA,1571595331,77,-33.93,18.42,62.01,12.75
20,Zaykovo,1485323,38,RU,1571595333,80,57.56,62.76,26.25,9.69
21,Ribeira Grande,3372707,40,PT,1571595334,56,38.52,-28.7,69.8,12.75
22,Isangel,2136825,83,VU,1571595335,83,-19.55,169.27,75.53,13.09
23,Dingle,2964782,75,IE,1571595336,71,52.14,-10.27,50.0,4.7
24,Nikolskoye,546105,100,RU,1571595337,87,59.7,30.79,48.99,4.47
25,Jamestown,3370903,0,SH,1571595338,87,-15.94,-5.72,67.63,15.3
26,Hobart,2163355,76,AU,1571595339,57,-42.88,147.33,52.0,10.29
27,Tiruchchendur,1254390,100,IN,1571595340,75,8.48,78.12,81.87,6.58
28,Guerrero Negro,4021858,0,MX,1571595341,81,27.97,-114.04,67.39,13.47
29,Esperance,2071860,0,AU,1571595342,72,-33.86,121.89,60.8,10.29
30,Ponta do Sol,3374346,40,CV,1571595343,58,17.2,-25.09,84.2,18.34
31,Butaritari,2110227,79,KI,1571595344,70,3.07,172.79,84.96,11.68
32,Mahebourg,934322,75,MU,1571595346,78,-20.41,57.7,75.2,11.41
33,Hermanus,3366880,100,ZA,1571594880,91,-34.42,19.24,60.01,3.0
34,Bambous Virieux,1106677,75,MU,1571595348,78,-20.34,57.76,75.2,11.41
35,Bredasdorp,1015776,99,ZA,1571595349,72,-34.53,20.04,59.0,14.99
36,Iqaluit,5983720,75,CA,1571595350,69,63.75,-68.52,32.0,11.41
37,Sayyan,70979,2,YE,1571595351,62,15.17,44.32,70.47,3.51
38,Jalu,86049,96,LY,1571595352,38,29.03,21.55,77.64,9.62
39,Sisophon,1822207,100,KH,1571595353,92,13.59,102.97,74.29,0.87
40,Xaltianguis,3515643,75,MX,1571595354,79,17.1,-99.71,84.2,8.05
41,Bembereke,2395182,41,BJ,1571595356,87,10.23,2.66,76.5,4.94
42,Hofn,2630299,75,IS,1571595357,80,64.25,-15.21,35.6,3.36
43,Busselton,2075265,0,AU,1571595358,69,-33.64,115.35,55.99,7.56
44,Avarua,4035715,100,CK,1571595360,83,-21.21,-159.78,77.0,8.05
45,Luena,3347719,20,AO,1571595361,41,-11.78,19.91,72.27,4.65
46,Ciucsangeorgiu,681480,0,RO,1571595362,68,46.32,25.95,51.01,1.83
47,Port Shepstone,964406,77,ZA,1571595363,76,-30.74,30.45,63.36,14.63
48,Kailua,5847486,75,US,1571595364,83,21.39,-157.74,82.4,3.36
49,Impfondo,2259655,63,CG,1571595365,94,1.64,18.07,73.35,0.89
50,Barrow,4252975,40,US,1571595366,63,39.51,-90.4,64.99,9.17
51,Puerto Ayora,3652764,20,EC,1571595367,57,-0.74,-90.35,78.8,23.04
52,Araouane,2460954,60,ML,1571595368,15,18.9,-3.53,94.79,4.97
53,Khatanga,2022572,100,RU,1571595369,79,71.98,102.47,11.2,14.34
54,Lensk,2020838,100,RU,1571595370,89,60.71,114.91,24.46,10.4
55,Carnarvon,2074865,0,AU,1571595371,88,-24.87,113.63,66.2,12.75
56,Castlemaine,2172106,5,AU,1571595372,88,-37.07,144.22,44.01,4.81
57,Provideniya,4031574,100,RU,1571595373,88,64.42,-173.23,23.53,8.03
58,Parrsboro,6098717,20,CA,1571595374,54,45.41,-64.33,57.99,13.87
59,Namibe,3347019,60,AO,1571595377,83,-15.19,12.15,70.6,8.16
60,Marshfield,4943204,1,US,1571595378,59,42.09,-70.71,63.0,8.05
61,Salina,4550364,1,US,1571595379,56,36.29,-95.15,75.0,11.41
62,Kruisfontein,986717,16,ZA,1571595381,92,-34.0,24.73,59.28,12.86
63,Vanderhoof,6173361,100,CA,1571595382,68,54.02,-124.02,36.83,0.98
64,Budila,683422,0,RO,1571595383,74,45.67,25.81,59.0,2.55
65,Maun,933366,0,BW,1571595384,14,-19.99,23.42,87.8,2.24
66,Mindszent,717591,0,HU,1571595385,63,46.52,20.19,64.4,2.24
67,Ust-Uda,2013865,66,RU,1571595386,90,54.17,103.03,23.15,2.28
68,Wageningen,3382783,100,SR,1571595387,73,5.77,-56.69,83.88,12.3
69,Los Llanos de Aridane,2514651,75,ES,1571595388,94,28.66,-17.92,68.0,5.82
70,Chokurdakh,2126123,97,RU,1571595389,96,70.62,147.9,1.71,4.83
71,Trairi,3386177,68,BR,1571595390,40,-3.28,-39.27,92.76,11.27
72,Balkanabat,161616,1,TM,1571595391,70,39.51,54.36,64.93,10.54
73,Comodoro Rivadavia,3860443,0,AR,1571595392,17,-45.87,-67.48,77.0,17.22
74,U Thong,1149964,29,TH,1571595393,85,14.38,99.89,74.16,4.54
75,Khandbari,1283217,84,NP,1571595394,83,27.38,87.21,48.44,3.71
76,Salalah,286621,0,OM,1571595395,48,17.01,54.1,84.2,3.36
77,Gramsh,783059,0,AL,1571595396,81,40.87,20.19,51.8,2.24
78,Yellowknife,6185377,75,CA,1571594883,86,62.45,-114.38,26.6,6.93
79,Panguna,2088659,56,PG,1571595398,76,-6.32,155.48,81.51,6.53
80,Port Alfred,964432,1,ZA,1571595399,88,-33.59,26.89,64.0,3.0
81,Srednekolymsk,2121025,100,RU,1571595400,86,67.46,153.71,12.04,3.04
82,Aykhal,2027296,90,RU,1571595401,91,65.95,111.51,1.4,3.11
83,New Norfolk,2155415,76,AU,1571595402,57,-42.78,147.06,52.0,10.29
84,Labuan,1734240,75,MY,1571595403,88,5.33,115.2,82.4,2.24
85,Arlit,2447513,19,NE,1571595404,22,18.74,7.39,95.64,18.41
86,Acapulco,3533462,75,MX,1571595405,79,16.86,-99.88,84.2,8.05
87,Lyubinskiy,1500125,0,RU,1571595406,92,55.15,72.69,17.6,2.24
88,Oistins,3373652,40,BB,1571595408,62,13.07,-59.53,87.8,11.41
89,Morondava,1058381,20,MG,1571595409,78,-20.3,44.28,79.29,11.95
90,Martinopolis,3457595,0,BR,1571595410,33,-22.15,-51.17,89.6,9.17
91,Coquimbo,3893629,0,CL,1571595411,48,-29.95,-71.34,64.4,20.8
92,Strezhevoy,1490796,0,RU,1571595413,79,60.73,77.6,21.2,11.18
93,Pozoblanco,2512340,20,ES,1571595414,52,38.38,-4.85,64.4,9.17
94,Mkushi,906221,24,ZM,1571595416,22,-13.61,29.4,75.24,6.62
95,Baoshan,1816917,0,CN,1571595417,77,31.41,121.49,64.0,2.24
96,Saint-Joseph,6690296,0,RE,1571595418,64,-21.37,55.62,71.6,3.36
97,Ayagoz,1525988,100,KZ,1571595419,85,47.96,80.43,22.11,28.52
98,Punta Arenas,3874787,40,CL,1571595420,40,-53.16,-70.91,53.6,17.22
99,Ninh Binh,1571968,19,VN,1571595421,93,20.25,105.97,69.43,1.83
100,Pacific Grove,5380437,1,US,1571595422,72,36.62,-121.92,68.0,4.7
101,Upernavik,3418910,93,GL,1571595424,86,72.79,-56.15,21.42,5.66
102,Mitchell,5229794,90,US,1571595425,66,43.71,-98.03,54.0,8.05
103,Fortuna,5563839,90,US,1571595426,81,40.6,-124.16,60.01,6.93
104,Cockburn Town,3572627,100,BS,1571595429,73,24.03,-74.52,83.09,5.97
105,Makinsk,1521230,0,KZ,1571595430,84,52.63,70.42,14.01,1.32
106,Bluff,2206939,71,NZ,1571595431,91,-46.6,168.33,42.01,5.01
107,Sendafa,328880,0,ET,1571595432,76,9.16,39.02,52.15,6.67
108,Calvinia,3369174,0,ZA,1571595433,74,-31.47,19.78,56.4,13.89
109,Saskylakh,2017155,88,RU,1571595434,82,71.97,114.09,1.08,9.64
110,Ancud,3899695,90,CL,1571595435,87,-41.87,-73.83,48.2,23.04
111,Lebu,3883457,94,CL,1571595436,76,-37.62,-73.65,53.21,14.12
112,Faanui,4034551,49,PF,1571595437,77,-16.48,-151.75,80.41,12.97
113,Steinbach,6156102,75,CA,1571595438,70,49.53,-96.69,52.0,5.82
114,Praia da Vitoria,3372760,40,PT,1571595439,60,38.73,-27.07,69.8,11.9
115,Alice Springs,2077895,79,AU,1571595440,16,-23.7,133.88,66.2,5.82
116,Huarmey,3939168,99,PE,1571595441,89,-10.07,-78.15,61.89,16.02
117,Pathalgaon,1260141,52,IN,1571595442,87,22.56,83.46,71.1,3.56
118,East London,1006984,0,ZA,1571595443,72,-33.02,27.91,66.2,14.99
119,Lorengau,2092164,65,PG,1571595444,81,-2.02,147.27,80.12,9.06
120,Teguise,2510573,20,ES,1571595445,64,29.06,-13.56,75.2,16.11
121,Souillac,933995,75,MU,1571595447,78,-20.52,57.52,75.2,11.41
122,Tiksi,2015306,76,RU,1571595448,92,71.64,128.87,4.57,4.14
123,Arraial do Cabo,3471451,40,BR,1571595449,64,-22.97,-42.02,73.4,14.99
124,Yerofey Pavlovich,2012938,100,RU,1571595450,97,53.97,121.97,32.94,4.97
125,Nome,4732862,40,US,1571595451,63,30.04,-94.42,91.4,11.41
126,Dikson,1507390,93,RU,1571595453,85,73.51,80.55,23.96,15.19
127,Poum,2138555,83,NC,1571595454,82,-20.23,164.02,73.68,11.68
128,Nalut,2214433,2,LY,1571595456,38,31.86,10.98,78.97,12.26
129,Katastarion,260674,0,GR,1571595457,82,37.83,20.77,69.01,10.74
130,Constitucion,4011743,90,MX,1571595458,48,23.99,-104.67,71.01,5.64
131,Kaitangata,2208248,98,NZ,1571595459,77,-46.28,169.85,43.0,11.01
132,Hithadhoo,1282256,100,MV,1571595460,79,-0.6,73.08,80.88,11.61
133,Scarborough,2638419,90,GB,1571595461,87,54.28,-0.41,53.01,11.41
134,Vikhorevka,2013399,100,RU,1571595462,86,56.12,101.17,26.6,6.17
135,Ambilobe,1082243,55,MG,1571595463,64,-13.19,49.05,76.02,11.54
136,Xining,1788852,63,CN,1571595464,79,36.62,101.77,34.22,2.55
137,Port Elizabeth,964420,90,ZA,1571595465,82,-33.92,25.57,64.4,8.05
138,Kavieng,2094342,98,PG,1571595468,72,-2.57,150.8,84.24,12.8
139,Kapaa,5848280,40,US,1571595469,88,22.08,-159.32,75.99,8.05
140,Lavrentiya,4031637,100,RU,1571595470,96,65.58,-170.99,21.39,3.36
141,San Jose,3590069,78,GT,1571595471,47,16.98,-89.9,93.17,4.79
142,Geraldton,2070998,90,AU,1571595472,82,-28.77,114.6,59.0,5.82
143,Zapolyarnyy,464790,0,RU,1571595474,85,69.43,30.82,23.0,25.28
144,Aketi,220448,17,CD,1571595475,83,2.74,23.78,72.87,1.86
145,Hasaki,2112802,75,JP,1571595476,77,35.73,140.83,64.4,6.93
146,College,5859699,75,US,1571595477,80,64.86,-147.8,30.2,2.15
147,Helong,1808534,0,CN,1571595478,57,25.94,116.13,55.66,1.88
148,Maicao,3675657,36,CO,1571595479,58,11.38,-72.24,89.61,4.81
149,Yerbogachen,2012956,100,RU,1571595480,68,61.28,108.01,23.85,1.48
150,Komsomolskiy,1486910,98,RU,1571595482,95,67.55,63.78,22.61,10.13
151,Sept-Iles,6144312,20,CA,1571595483,40,50.2,-66.38,53.6,11.41
152,Talnakh,1490256,75,RU,1571595484,85,69.49,88.39,19.4,26.84
153,Maine-Soroa,2441447,19,NE,1571595485,26,13.21,12.02,95.91,6.67
154,Churhat,1273978,100,IN,1571595486,75,24.43,81.67,73.32,5.86
155,Camacha,2270385,40,PT,1571595487,52,33.08,-16.33,69.8,14.99
156,Auki,2109701,100,SB,1571595488,77,-8.77,160.7,82.44,9.64
157,Fairbanks,5861897,75,US,1571595489,80,64.84,-147.72,30.2,2.15
158,Te Anau,2181625,85,NZ,1571595490,69,-45.41,167.72,40.56,7.94
159,Charters Towers,2171722,0,AU,1571595491,96,-20.07,146.27,63.51,3.06
160,Ust-Kuyga,2013921,90,RU,1571595493,97,70.0,135.55,4.95,3.29
161,Abalak,2448245,65,NE,1571595494,32,15.46,6.28,92.25,6.2
162,Blackwater,2175403,0,AU,1571595495,37,-23.58,148.88,64.84,8.86
163,Cockburn Town,3576994,40,TC,1571595496,66,21.46,-71.14,87.8,5.82
164,Anchorage,5879400,75,US,1571595498,93,61.22,-149.89,37.0,3.36
165,Aragats,616062,40,AM,1571595499,51,40.22,44.23,62.6,2.24
166,Egvekinot,4031742,99,RU,1571595500,81,66.32,-179.17,12.71,13.67
167,Pavino,1495483,0,RU,1571595501,85,55.02,82.61,15.8,2.24
168,Rawson,3839307,80,AR,1571595502,22,-43.3,-65.11,81.69,13.73
169,Hutchinson,4273299,1,US,1571595503,40,38.06,-97.93,70.0,25.28
170,Cabo San Lucas,3985710,20,MX,1571595504,65,22.89,-109.91,84.99,5.82
171,Columbus,4188985,75,US,1571595505,60,32.46,-84.99,75.99,5.82
172,San Cristobal,3652567,99,EC,1571595506,54,-1.02,-79.44,84.03,4.25
173,Port-Cartier,6111696,20,CA,1571595507,40,50.03,-66.88,53.6,11.41
174,Orsha,624079,96,BY,1571595508,89,54.51,30.43,53.26,7.0
175,Adeje,2522437,75,ES,1571595509,77,28.12,-16.73,73.0,18.34
176,Bilma,2446796,18,NE,1571595510,21,18.69,12.92,88.63,4.29
177,Kodiak,4407665,1,US,1571595511,52,39.95,-94.76,64.99,14.99
178,Palmer,5871146,75,US,1571595512,59,61.6,-149.11,37.0,12.75
179,Sioux Lookout,6148373,20,CA,1571595513,76,50.1,-91.92,51.8,6.93
180,Vostok,2013279,50,RU,1571595514,78,46.45,135.83,43.35,4.76
181,Sorong,1626542,91,ID,1571595515,96,-0.86,131.25,74.97,4.43
182,Port Lincoln,2063036,20,AU,1571595516,86,-34.72,135.86,56.0,16.13
183,Kupang,2057087,0,ID,1571595517,70,-10.16,123.6,78.81,5.73
184,Pangai,4032369,20,TO,1571595518,100,-19.8,-174.35,75.2,8.5
185,Narsaq,3421719,31,GL,1571595519,81,60.91,-46.05,42.8,2.24
186,Ansbach,2955936,1,DE,1571595520,87,49.3,10.57,60.01,5.5
187,Puerto Leguizamo,3671437,100,CO,1571595521,98,-0.19,-74.78,74.52,0.76
188,Kavaratti,1267390,100,IN,1571595522,80,10.57,72.64,82.68,13.8
189,Bethel,5880568,90,US,1571595524,97,60.79,-161.76,32.0,5.21
190,Norman Wells,6089245,90,CA,1571595525,92,65.28,-126.83,28.4,2.24
191,Ulladulla,2145554,30,AU,1571595526,81,-35.36,150.48,48.99,8.05
192,Constitucion,3893726,53,CL,1571595527,57,-35.33,-72.42,55.66,7.02
193,San Pedro,3919886,20,BO,1571595528,14,-17.27,-66.8,84.2,8.05
194,Pisco,3932145,40,PE,1571595531,30,-13.71,-76.2,71.6,14.99
195,Rudnyy,2017377,45,RU,1571595532,77,44.28,134.96,45.16,3.8
196,Kudahuvadhoo,1337607,60,MV,1571595533,74,2.67,72.89,81.56,7.92
197,Biharamulo,161154,42,TZ,1571595534,89,-2.64,31.31,65.76,2.42
198,Pran Buri,1151063,98,TH,1571595536,98,12.39,99.9,71.1,2.93
199,Elizabeth City,4465088,90,US,1571595537,83,36.3,-76.22,75.2,18.34
200,Yulara,6355222,81,AU,1571595538,15,-25.24,130.99,71.6,6.93
201,Clyde River,5924351,90,CA,1571595539,100,70.47,-68.59,23.0,5.82
202,Tazmalt,2477537,20,DZ,1571595540,28,36.39,4.4,86.0,9.17
203,Cayenne,3382160,75,GF,1571595541,62,4.94,-52.33,89.6,16.11
204,Gari,1506676,99,RU,1571595543,80,59.43,62.35,31.77,12.06
205,Cururupu,3401148,90,BR,1571595544,46,-1.82,-44.87,92.09,8.39
206,Mar del Plata,3863379,98,AR,1571595545,15,-46.43,-67.52,69.93,33.31
207,Kontagora,2334008,44,NG,1571595546,81,10.4,5.47,76.52,2.82
208,Tarauaca,3661980,100,BR,1571595547,38,-8.16,-70.77,96.07,1.41
209,Tuktoyaktuk,6170031,20,CA,1571595548,78,69.44,-133.03,15.8,11.41
210,Kishni,1266477,17,IN,1571595549,40,27.02,79.26,75.58,3.65
211,Gobabis,3357247,2,NA,1571595550,12,-22.45,18.97,79.9,6.46
212,Zabol,1113217,0,IR,1571595551,25,31.03,61.49,64.4,6.93
213,Riohacha,3670745,20,CO,1571595552,66,11.54,-72.91,89.6,11.41
214,Jatiroto,1643920,22,ID,1571595553,94,-7.61,109.46,72.69,2.06
215,Varna,1487764,0,RU,1571595554,61,53.38,60.98,25.76,6.17
216,Karaidel,552862,100,RU,1571595555,77,55.83,56.91,31.83,12.93
217,Porto Santo,8010683,40,PT,1571595556,52,33.07,-16.34,69.8,14.99
218,Severo-Kurilsk,2121385,1,RU,1571595557,69,50.68,156.12,41.13,8.1
219,Prince Rupert,6113406,90,CA,1571595559,87,54.32,-130.32,44.6,3.36
220,Norton,884141,1,ZW,1571595560,17,-17.87,30.7,74.83,8.61
221,Nishihara,1850144,75,JP,1571595561,77,35.74,139.53,69.01,3.36
222,Grindavik,3416888,90,IS,1571595562,100,63.84,-22.43,46.4,28.86
223,Saint-Augustin,6138501,75,CA,1571595563,61,45.63,-73.98,54.0,6.93
224,Mareeba,2158767,75,AU,1571595565,73,-16.99,145.42,71.6,5.82
225,Gerash,133595,0,IR,1571595566,46,27.67,54.14,73.4,6.06
226,Rio Grande,3451138,75,BR,1571595568,59,-32.03,-52.1,66.2,10.29
227,Narrabri,2155742,0,AU,1571595569,29,-30.33,149.78,55.99,5.84
228,Belaya Gora,2126785,97,RU,1571595570,95,68.54,146.19,10.41,4.65
229,Chapais,5919850,75,CA,1571595571,57,49.78,-74.86,48.2,8.05
230,Fomboni,921889,1,KM,1571595572,72,-12.28,43.74,79.9,4.79
231,Agirish,1512101,100,RU,1571595573,92,61.92,63.02,28.66,13.53
232,Thompson,6165406,90,CA,1571595574,93,55.74,-97.86,39.2,6.93
233,Longyearbyen,2729907,75,SJ,1571595576,66,78.22,15.64,15.8,3.36
234,Port Blair,1259385,44,IN,1571595577,78,11.67,92.75,84.21,15.17
235,Xingyi,1787599,0,CN,1571595578,97,24.19,102.82,53.48,2.3
236,Ballina,2966778,75,IE,1571595579,70,54.11,-9.15,48.99,6.93
237,Bay Roberts,5895424,75,CA,1571595580,70,47.58,-53.28,50.0,23.04
238,Vila Franca do Campo,3372472,40,PT,1571595581,52,37.72,-25.43,66.2,9.17
239,Bonavista,5905393,100,CA,1571595582,88,48.65,-53.11,46.99,11.99
240,Arrecife,2521570,20,ES,1571595584,60,28.96,-13.55,75.2,16.11
241,Mahibadhoo,1337605,94,MV,1571595585,73,3.78,72.97,83.52,9.15
242,Funadhoo,1337620,100,MV,1571595586,71,6.15,73.27,81.6,8.01
243,Pumiao,1798480,26,CN,1571595588,78,22.75,108.49,75.2,4.47
244,Labuhan,1641899,2,ID,1571595589,90,-2.54,115.51,74.65,1.41
245,Hami,1529484,0,CN,1571595590,22,42.84,93.51,45.27,2.73
246,Klaksvik,2618795,100,FO,1571595591,93,62.23,-6.59,42.8,6.93
247,Beyneu,610298,0,KZ,1571595592,49,45.32,55.19,57.96,14.92
248,Tuatapere,2180815,53,NZ,1571595594,91,-46.13,167.69,42.01,5.01
249,Manokwari,1636308,49,ID,1571595595,82,-0.87,134.08,73.03,5.17
250,Queenstown,963516,0,ZA,1571595596,78,-31.89,26.88,58.61,6.08
251,Kloulklubed,7671223,40,PW,1571595597,94,7.04,134.26,75.2,3.47
252,Vao,2137773,32,NC,1571595598,82,-22.67,167.48,71.98,12.33
253,Beringovskiy,2126710,84,RU,1571595600,87,63.05,179.32,17.39,5.93
254,Kittery,4968937,75,US,1571595602,62,43.09,-70.74,62.01,8.05
255,Medowie,2158220,18,AU,1571595603,93,-32.73,151.85,55.0,1.77
256,Brawley,5330567,1,US,1571595604,16,32.98,-115.53,84.99,6.93
257,Lindas,3147441,20,NO,1571595605,81,60.74,5.16,46.4,11.41
258,Uhlove,690820,0,UA,1571595607,71,44.82,33.6,63.09,6.91
259,Gimli,5961417,35,CA,1571595608,62,50.63,-96.99,53.01,1.99
260,Rancho Palos Verdes,5386035,5,US,1571595609,46,33.75,-118.37,79.0,6.64
261,High Level,5975004,90,CA,1571595612,76,58.52,-117.13,32.0,1.83
262,Kaeo,2189343,55,NZ,1571595613,100,-35.1,173.78,52.0,5.19
263,Saint-Francois,3578441,75,GP,1571595614,66,16.25,-61.27,86.0,12.75
264,Paamiut,3421193,1,GL,1571595615,80,61.99,-49.67,39.8,2.35
265,Sitka,4267710,100,US,1571595616,45,37.17,-99.65,63.0,11.99
266,Mattru,2409215,99,SL,1571595617,86,7.62,-11.83,78.72,3.78
267,Coahuayana,3981460,51,MX,1571595618,70,18.62,-100.35,83.58,2.84
268,Tupiza,3902202,99,BO,1571595619,5,-21.44,-65.72,65.02,21.09
269,Karabulak,1518542,65,KZ,1571595620,40,44.91,78.49,50.62,4.85
270,Inhambane,1045114,20,MZ,1571595621,83,-23.87,35.38,77.0,16.11
271,Chuy,3443061,67,UY,1571595622,69,-33.69,-53.46,60.3,10.13
272,Victoria,241131,40,SC,1571595623,88,-4.62,55.45,80.6,1.12
273,Billings,5640350,75,US,1571595624,65,45.79,-108.5,44.6,14.99
274,Staffanstorp,2674649,40,SE,1571595626,100,55.64,13.21,54.0,2.24
275,Nouadhibou,2377457,0,MR,1571595627,73,20.93,-17.03,71.6,20.8
276,Jimenez,4003938,5,MX,1571595628,36,28.33,-105.4,75.2,5.82
277,Namatanai,2090021,100,PG,1571595629,82,-3.66,152.44,78.72,11.27
278,Itupiranga,3397851,40,BR,1571595630,47,-5.13,-49.33,95.0,6.93
279,Shelburne,6145890,1,CA,1571595631,55,44.08,-80.2,64.99,6.93
280,Rongcheng,1786855,100,CN,1571595632,59,37.16,122.42,64.99,3.0
281,Kyra,2021041,0,RU,1571595633,67,49.58,111.97,24.46,4.36
282,Pangody,1495626,99,RU,1571595634,94,65.85,74.49,26.41,21.41
283,Saint George,3573061,75,BM,1571595635,57,32.38,-64.68,79.0,8.05
284,Point Fortin,3573899,40,TT,1571595636,74,10.16,-61.68,84.99,4.7
285,Matadi,2313002,62,CD,1571595637,81,-5.83,13.46,78.97,7.92
286,San Buenaventura,3987500,0,MX,1571595638,37,27.06,-101.55,82.51,5.44
287,Waingapu,1622318,26,ID,1571595639,91,-9.65,120.26,71.43,7.4
288,Vila Velha,6320062,20,BR,1571595640,66,-3.71,-38.6,86.0,12.75
289,Yarim,69559,5,YE,1571595641,76,14.3,44.38,67.66,3.4
290,Riberalta,3906466,74,BO,1571595642,43,-11.0,-66.08,93.4,3.76
291,Akhtubinsk,583798,48,RU,1571595643,68,48.29,46.17,54.07,6.6
292,Marsh Harbour,3571913,76,BS,1571595644,83,26.54,-77.06,82.35,11.99
293,Nenjiang,2035601,92,CN,1571595645,53,49.17,125.23,38.25,17.81
294,Genhe,2037252,80,CN,1571595646,72,50.78,121.52,25.58,12.64
295,Tonantins,3661894,100,BR,1571595647,65,-2.86,-67.77,86.4,2.89
296,Penzance,2640377,20,GB,1571595648,76,50.12,-5.53,54.0,9.17
297,Maura,3146270,75,NO,1571595649,93,60.26,11.03,41.0,6.93
298,Lichinga,1043893,29,MZ,1571595650,56,-13.3,35.25,78.9,5.84
299,Temecula,5401395,1,US,1571595652,28,33.49,-117.15,78.01,6.93
300,Batagay,2027044,94,RU,1571595653,96,67.65,134.64,10.86,0.85
301,Sao Joao da Barra,3448903,75,BR,1571595654,64,-21.64,-41.05,75.2,20.8
302,Fazalpur,1179255,20,PK,1571595655,88,32.18,75.07,68.0,3.18
303,Mayumba,2399001,100,GA,1571595656,83,-3.44,10.65,76.63,7.47
304,Maniitsoq,3421982,7,GL,1571595657,57,65.42,-52.9,36.6,6.51
305,Chervone,709717,0,UA,1571595658,54,47.83,37.79,58.83,3.96
306,Pavlovsk,1495448,75,RU,1571595659,57,53.31,82.99,23.0,11.18
307,Guarapari,3461888,90,BR,1571595660,73,-20.67,-40.5,78.01,16.11
308,Amalapuram,1278935,91,IN,1571595662,94,16.58,82.0,76.43,4.88
309,Belmonte,3448454,78,BR,1571595664,59,-26.84,-53.58,81.33,2.93
310,San Juan,4726440,75,US,1571595665,83,26.19,-98.16,87.8,8.05
311,Margate,978895,77,ZA,1571595666,76,-30.86,30.37,63.36,14.63
312,Konstantinovsk,545277,0,RU,1571595667,67,47.58,41.1,57.44,7.83
313,Tura,2014833,4,RU,1571595668,93,64.27,100.22,6.52,1.54
314,Qasigiannguit,3420768,61,GL,1571595669,58,68.82,-51.19,26.6,9.17
315,Havoysund,779622,0,NO,1571595670,65,71.0,24.66,32.0,21.92
316,Griffith,2164422,4,AU,1571595671,70,-34.29,146.06,46.4,1.12
317,Ahuimanu,5856516,75,US,1571595672,83,21.44,-157.84,82.4,3.36
318,Ngunguru,2186111,42,NZ,1571595673,94,-35.62,174.5,51.01,10.47
319,Mitu,3674676,100,CO,1571595674,81,1.2,-70.17,79.94,3.02
320,Yagodnoye,2119626,89,RU,1571595675,83,62.52,149.63,10.03,2.8
321,Georgetown,2411397,86,SH,1571595676,81,-7.93,-14.42,73.41,15.21
322,Shimoda,1852357,91,JP,1571595677,87,34.7,138.93,61.0,1.01
323,Myingyan,1307835,40,MM,1571595678,88,21.46,95.39,80.6,2.24
324,Yumen,1528998,51,CN,1571595679,19,40.29,97.04,45.67,7.2
325,Kipia,735861,20,GR,1571595680,82,40.89,24.2,70.0,2.13
326,Shingu,1847947,100,JP,1571595681,90,33.72,135.99,59.55,3.47
327,Broome,2075720,45,AU,1571595682,48,-17.97,122.23,86.0,9.17
328,Udachnyy,2014624,90,RU,1571595683,91,66.42,112.4,1.4,1.74
329,Saint-Pierre,3424934,75,PM,1571595685,66,46.77,-56.17,50.0,25.28
330,Natal,3394023,40,BR,1571595686,62,-5.81,-35.21,86.0,13.87
331,Corinto,3620269,40,NI,1571595687,66,12.48,-87.17,87.8,4.7
332,Kuching,1735634,75,MY,1571595688,94,1.56,110.34,78.8,3.36
333,Cuamba,1047660,99,MZ,1571595690,54,-14.8,36.54,79.83,3.96
334,Greenville,4580543,1,US,1571595691,60,34.85,-82.4,78.01,4.7
335,Tual,1623197,26,ID,1571595693,86,-5.67,132.75,78.88,14.52
336,Porto Novo,3374336,40,CV,1571595694,65,17.02,-25.06,82.4,20.8
337,Bafata,2375254,53,GW,1571595696,79,12.17,-14.67,84.37,7.85
338,San Ramon,3905088,100,BO,1571595697,50,-13.27,-64.62,90.61,3.36
339,Udankudi,1253972,100,IN,1571595698,75,8.43,78.03,81.87,6.58
340,Khorramshahr,127319,0,IR,1571595699,28,30.43,48.18,87.8,4.7
341,Serik,301101,0,TR,1571595700,77,36.92,31.1,69.8,4.7
342,Panzhihua,6929460,0,CN,1571595701,85,26.59,101.72,57.66,1.3
343,Khamgaon,1267084,100,IN,1571595702,86,20.71,76.57,70.78,1.88
344,Hokitika,2206894,67,NZ,1571595703,81,-42.72,170.96,50.08,5.57
345,Oxelosund,2684653,23,SE,1571595704,100,58.67,17.1,44.6,2.24
346,Yazykovo,468486,100,RU,1571595705,87,54.3,47.38,50.65,8.72
347,Nsunga,151363,20,TZ,1571595706,78,-1.13,31.39,71.6,0.54
348,Tamworth,2147497,0,AU,1571595708,76,-31.09,150.93,51.8,9.17
349,Russell,2188874,40,NZ,1571595709,94,-35.26,174.12,52.0,1.9
350,Atar,2381334,38,MR,1571595710,17,20.52,-13.05,91.39,9.08
351,Nichinan,1855476,100,JP,1571595711,77,31.65,131.31,64.0,3.0
352,Moa,3546791,99,CU,1571595712,52,20.66,-74.95,88.76,4.56
353,Iguape,3461465,99,BR,1571595713,71,-24.7,-47.56,66.3,5.75
354,Urusha,2014078,100,RU,1571595714,98,54.05,122.9,36.87,3.6
355,Saldanha,3361934,17,ZA,1571595716,77,-33.01,17.94,64.4,12.75
356,Aleksandrov Gay,583345,71,RU,1571595717,68,50.14,48.57,52.83,7.58
357,Pevek,2122090,100,RU,1571595718,69,69.7,170.27,27.16,12.3
358,Praya,1630662,40,ID,1571595719,88,-8.71,116.27,78.8,6.93
359,Canton,5149222,20,US,1571595720,46,40.8,-81.38,72.0,3.31
360,Nabire,1634614,60,ID,1571595721,99,-3.36,135.5,70.24,2.3
361,Lincoln,5072006,1,US,1571595722,63,40.8,-96.67,62.6,18.34
362,Son Tay,1567621,75,VN,1571595723,88,21.14,105.5,77.0,3.36
363,San Felipe,3987224,0,MX,1571595724,44,31.02,-114.84,81.0,11.99
364,Adrar,2508813,0,DZ,1571595726,17,27.87,-0.29,91.4,4.7
365,Cherskiy,2126199,0,RU,1571595727,91,68.75,161.3,3.64,1.3
366,Luangwa,911148,8,ZM,1571595729,25,-12.88,28.25,74.79,2.77
367,Maceio,3395981,20,BR,1571595730,66,-9.67,-35.74,84.2,18.34
368,Mount Gambier,2156643,90,AU,1571595731,81,-37.83,140.78,50.0,3.31
369,Vardo,777019,20,NO,1571595733,74,70.37,31.11,30.2,35.57
370,Kerema,2094144,96,PG,1571595734,78,-7.96,145.78,77.24,8.97
371,Yenagoa,2318123,100,NG,1571595735,92,4.92,6.26,76.0,3.29
372,Quito,3652462,90,EC,1571595736,63,-0.22,-78.51,64.4,3.36
373,Namtsy,2019488,0,RU,1571595737,92,62.72,129.66,17.6,4.47
374,Pasni,1168312,0,PK,1571595738,56,25.26,63.48,80.41,3.38
375,Mount Isa,2065594,0,AU,1571595739,11,-20.73,139.49,73.4,12.75
376,Ilulissat,3423146,89,GL,1571595740,58,69.22,-51.1,26.6,9.17
377,Lompoc,5367788,1,US,1571595741,46,34.64,-120.46,82.0,20.8
378,Yuanping,1786060,0,CN,1571595742,30,38.72,112.71,39.22,2.84
379,Vung Tau,1562414,91,VN,1571595743,78,10.35,107.08,80.82,14.45
380,Kidal,2455290,76,ML,1571595744,22,18.44,1.41,92.76,6.69
381,Mongagua,3456944,75,BR,1571595745,68,-24.09,-46.62,71.6,13.87
382,Chimbote,3698304,94,PE,1571595746,91,-9.08,-78.59,61.33,13.51
383,Sao Geraldo do Araguaia,3388760,50,BR,1571595747,38,-6.4,-48.55,96.0,5.37
384,Sortavala,490466,98,RU,1571595748,88,61.7,30.69,36.81,2.71
385,Rio Gallegos,3838859,75,AR,1571595749,53,-51.62,-69.22,60.8,16.11
386,Peniche,2264923,20,PT,1571595750,63,39.36,-9.38,60.8,6.93
387,Vernon,4739078,1,US,1571595751,32,34.15,-99.28,84.0,19.46
388,Mackenzie,6063191,90,CA,1571595752,93,55.34,-123.09,35.6,4.7
389,Nanhai,7696234,36,CN,1571595753,81,30.13,111.78,64.0,2.84
390,Husavik,2629833,90,IS,1571595754,80,66.04,-17.34,39.2,13.87
391,Torbay,6167817,75,CA,1571595755,70,47.66,-52.73,50.0,23.04
392,Nigde,303827,100,TR,1571595757,41,37.97,34.68,54.43,4.79
393,Portland,2152668,6,AU,1571595759,94,-33.35,149.98,44.01,2.28
394,Ostrovnoy,556268,99,RU,1571595760,84,68.05,39.51,25.31,6.04
395,Riyadh,108410,0,SA,1571595761,36,24.63,46.72,78.8,2.24
396,Westport,2960970,75,IE,1571595762,70,53.8,-9.52,52.0,6.93
397,Pavlodar,1520240,90,KZ,1571595763,85,52.28,76.96,24.8,8.95
398,Hammerfest,779683,0,NO,1571595764,62,70.66,23.68,32.0,20.8
399,Ingham,2162737,28,AU,1571595765,96,-18.65,146.16,66.01,0.78
400,Leshukonskoye,535839,98,RU,1571595766,87,64.9,45.76,31.29,8.66
401,Santo Domingo,3653015,75,EC,1571595767,55,-2.48,-80.3,86.0,4.7
402,Richards Bay,962367,23,ZA,1571595769,87,-28.77,32.06,72.88,27.65
403,Kajaani,654901,90,FI,1571595770,81,64.22,27.73,32.0,6.93
404,Progreso,3515690,32,MX,1571595771,54,20.25,-99.19,73.01,2.66
405,Buraydah,107304,0,SA,1571595772,32,26.33,43.97,80.6,3.36
406,Mason City,4866445,1,US,1571595773,39,43.15,-93.2,66.2,9.17
407,Visby,2662689,90,SE,1571595774,100,57.64,18.3,53.01,5.82
408,Birjand,140463,0,IR,1571595775,17,32.86,59.22,55.4,6.93
409,Ponta Delgada,3372783,40,PT,1571595776,52,37.73,-25.67,66.2,9.17
410,Cloquet,5021632,1,US,1571595777,41,46.72,-92.46,61.0,4.05
411,Rindal,3141866,0,NO,1571595778,89,63.05,9.21,31.99,4.68
412,Harper,2276492,95,LR,1571595779,83,4.38,-7.71,79.35,9.84
413,Puerto Escondido,3520994,75,MX,1571595780,70,15.86,-97.07,86.0,9.17
414,Barcelos,3665098,92,BR,1571595781,49,-0.97,-62.93,92.65,3.22
415,Honningsvag,779554,0,NO,1571595782,62,70.98,25.97,32.0,21.92
416,Caxias do Sul,3466537,40,BR,1571595783,68,-29.17,-51.18,73.0,4.7
417,Awbari,2219235,0,LY,1571595784,32,26.59,12.77,82.37,17.9
418,Sisimiut,3419842,0,GL,1571595785,71,66.94,-53.67,32.89,12.77
419,Cidreira,3466165,97,BR,1571595786,57,-30.17,-50.22,66.76,12.03
420,Iisalmi,656820,90,FI,1571595787,88,63.56,27.19,35.6,6.93
421,Ahipara,2194098,21,NZ,1571595788,100,-35.17,173.16,52.0,19.42
422,Ushibuka,1849154,100,JP,1571595789,70,32.19,130.02,70.09,10.31
423,Leningradskiy,2123814,100,RU,1571595790,94,69.38,178.42,25.35,25.28
424,San Patricio,3985168,90,MX,1571595791,94,19.22,-104.7,80.6,5.82
425,Gladstone,2165478,4,AU,1571595795,73,-23.84,151.26,69.8,8.05
426,Roros,3141332,75,NO,1571595797,93,62.57,11.38,32.0,6.93
427,Makakilo City,5850554,75,US,1571595798,94,21.35,-158.09,82.4,3.09
428,San Andres,7522928,40,CO,1571595799,66,8.22,-76.58,87.8,11.41
429,Berlevag,780687,0,NO,1571595800,79,70.86,29.09,30.2,34.45
430,Alihe,2038665,100,CN,1571595801,62,50.57,123.73,33.57,15.3
431,Vestmannaeyjar,3412093,90,IS,1571595802,100,63.44,-20.27,44.6,28.86
432,Fonte Boa,3664207,100,BR,1571595803,65,-2.51,-66.09,84.91,3.06
433,Tripoli,2210247,0,LY,1571595804,69,32.88,13.19,77.31,25.59
434,Ostersund,2685750,90,SE,1571595805,92,63.18,14.64,30.99,4.7
435,Svetlogorsk,584051,0,RU,1571595806,85,53.14,59.15,15.8,4.47
436,Falmouth,2649715,20,GB,1571595807,76,50.16,-5.07,54.0,9.17
437,Sydney,2147714,0,AU,1571595808,93,-33.85,151.22,54.0,4.07
438,Zhezkazgan,1516589,0,KZ,1571595809,51,47.8,67.71,30.87,15.82
439,Ovalle,3877918,4,CL,1571595810,39,-30.6,-71.2,68.08,15.05
440,Tay Ninh,1566559,100,VN,1571595811,91,11.3,106.1,77.76,2.04
441,Kahului,5847411,20,US,1571595812,69,20.89,-156.47,80.6,16.58
442,Quatre Cocos,1106643,75,MU,1571595813,78,-20.21,57.76,75.2,11.41
443,Bathsheba,3374083,40,BB,1571595814,62,13.22,-59.52,87.8,11.41
444,Mercedes,3430709,100,AR,1571595815,90,-29.18,-58.08,56.38,17.38
445,Kungurtug,1501377,100,RU,1571595816,81,50.6,97.53,26.14,1.79
446,El Limon,3642833,100,VE,1571595818,82,10.3,-67.63,79.02,5.61
447,Lazaro Cardenas,3996234,5,MX,1571595819,36,28.39,-105.62,75.2,5.82
448,Amambai,3472391,81,BR,1571595820,58,-23.11,-55.23,85.88,5.93
449,Tramandai,3446232,100,BR,1571595821,60,-29.98,-50.13,67.95,10.6
450,Shibetsu,2127500,0,JP,1571595822,88,44.15,142.46,41.2,4.7
451,Bosaso,64013,97,SO,1571595823,74,11.28,49.18,81.72,10.33
452,Kirakira,2178753,59,SB,1571595825,86,-10.46,161.92,78.41,5.19
453,Seoul,1835848,1,KR,1571595826,100,37.57,126.98,53.6,1.12
454,Half Moon Bay,5354943,1,US,1571595827,67,37.46,-122.43,68.0,12.75
455,Camacupa,3351014,47,AO,1571595828,45,-12.02,17.48,70.9,2.86
456,Sorland,3137469,75,NO,1571595829,65,67.67,12.69,41.0,11.41
457,Cumbitara,3685428,75,CO,1571595830,82,1.65,-77.58,68.0,6.93
458,Necochea,3430443,100,AR,1571595832,51,-38.55,-58.74,66.0,7.0
459,Urut,616178,20,AM,1571595833,62,41.07,44.4,55.4,12.75
460,Sao Filipe,3374210,13,CV,1571595834,83,14.9,-24.5,78.01,20.96
461,Vestmanna,2610343,100,FO,1571595836,93,62.16,-7.17,42.8,6.93
462,Colares,2269142,20,PT,1571595837,63,38.8,-9.45,64.4,11.41
463,Touros,3386213,40,BR,1571595838,62,-5.2,-35.46,84.2,13.87
464,Hobyo,57000,33,SO,1571595839,72,5.35,48.53,81.16,9.84
465,Umm Kaddadah,364933,97,SD,1571595840,34,13.6,26.69,91.17,6.02
466,Dailly,2648626,20,GB,1571595842,70,55.28,-4.72,48.0,3.36
467,Dunedin,2191562,83,NZ,1571595843,81,-45.87,170.5,48.99,23.0
468,Boromlya,711629,13,UA,1571595844,67,50.62,34.97,54.85,6.38
469,Cusuna,3612949,28,HN,1571595847,73,15.85,-85.23,86.2,17.69
470,Imeni Poliny Osipenko,2023584,29,RU,1571595848,95,52.42,136.49,34.76,1.07
471,Valleyview,6173220,29,CA,1571595849,61,55.07,-117.28,39.24,3.15
472,Kawalu,1640902,70,ID,1571595850,90,-7.38,108.21,69.12,3.65
473,Kita,2455216,25,ML,1571595853,36,13.04,-9.49,89.53,3.4
474,Pindamonhangaba,3453837,75,BR,1571595854,60,-22.93,-45.46,78.8,9.17
475,Flin Flon,5954718,90,CA,1571595855,86,54.77,-101.88,39.2,6.93
476,Antofagasta,3899539,20,CL,1571595856,59,-23.65,-70.4,69.01,21.92
477,Los Andes,3882434,20,CL,1571595857,39,-32.83,-70.6,75.0,8.05
478,Fukue,1848373,75,JP,1571595859,77,35.03,136.69,66.2,6.93
479,Karratha,6620339,48,AU,1571595860,36,-20.74,116.85,76.97,9.28
480,Vesoul,2969562,99,FR,1571595861,100,47.62,6.16,59.0,5.82
481,Redmond,5808079,90,US,1571595864,87,47.67,-122.12,50.0,8.05
482,Sirohi,1256067,6,IN,1571595866,51,24.89,72.86,79.54,2.73
483,Springdale,6154159,90,CA,1571595867,76,49.5,-56.06,46.0,11.32
484,Ishigaki,1861416,34,JP,1571595868,78,24.34,124.16,74.79,21.21
485,Vilhena,3924679,40,BR,1571595869,66,-12.74,-60.15,84.2,4.7
486,Rosario,3838583,90,AR,1571595870,68,-32.96,-60.66,66.99,5.82
487,Harindanga,1349090,0,IN,1571595871,88,22.04,88.32,80.6,4.18
488,Vila do Maio,3374120,20,CV,1571595872,62,15.13,-23.22,84.2,20.8
489,Beloha,1067565,0,MG,1571595874,59,-25.17,45.06,73.84,3.91
490,Avallon,3035768,100,FR,1571595875,94,47.49,3.91,57.99,6.58
491,Muisne,3653967,90,EC,1571595876,74,0.61,-80.02,80.6,10.29
492,Suez,359796,16,EG,1571595877,54,29.97,32.54,73.68,6.33
493,Khabary,1503856,22,RU,1571595878,75,53.63,79.53,21.26,5.46
494,Yar-Sale,1486321,100,RU,1571595880,95,66.83,70.83,27.51,10.02
495,Bud,7626370,75,NO,1571595881,75,62.91,6.91,46.4,6.93
496,Deputatskiy,2028164,90,RU,1571595882,95,69.3,139.9,9.92,2.3
497,Tchollire,2221607,68,CM,1571595883,89,8.4,14.17,75.44,2.66
498,Salvador,3450554,20,BR,1571595885,74,-12.98,-38.48,84.2,16.11
499,Beaverlodge,5896969,75,CA,1571595886,65,55.21,-119.43,32.0,3.36
